[
  { "id":"P01","name":"翟山坑道","category":"戰地坑道","tags":["坑道","乘船","戰時文化"],"lat":24.3903,"lng":118.32054,"address":"金城鎮","desc":"戰地時期的海防坑道，退潮與導覽配合可乘船入內，回音與光影變化是亮點。","quests":["錄下 10 秒回音","找一處最佳光影位置拍照"] },
  { "id":"T02","name":"金城民防坑道","category":"戰地坑道","tags":["民防","坑道"],"lat":24.43306,"lng":118.32022,"address":"金城鎮（入口：金城車站二樓）","desc":"1978 年建成的城區地下防空坑道，見證戰地政務時期全民防空的歷史印記。","quests":["安全導覽下數出轉折數","寫 20 字感想"] },

  { "id":"H01","name":"擎天廳","category":"太武山","tags":["坑道展演","聲光"],"lat":24.45422,"lng":118.4072,"address":"太武山區","desc":"太武山下巨型地下空間，早年軍事設施，現為展演／聲光節目場域。","quests":["找最佳拍照角度（不干擾他人）","寫 20 字聲光心得"] },

  { "id":"B02","name":"陳景蘭洋樓","category":"洋樓建築","tags":["人文建築","僑鄉風華"],"lat":24.43727,"lng":118.39009,"address":"金湖鎮成功","desc":"金門規模最大的洋樓，見證南洋風格與僑鄉歷史。","quests":["拍 2 個立面裝飾細節","描述最喜歡的空間"] },
  { "id":"B05","name":"北山古洋樓","category":"洋樓建築","tags":["聚落","裝飾細節"],"lat":24.47921,"lng":118.31256,"address":"金寧鄉北山","desc":"聚落中的洋樓建築，裝飾與量體比例值得細看。","quests":["拍 2 個立面細節","寫 1 個最喜歡的元素"] },

  { "id":"M02","name":"特約茶室展示館","category":"戰時文化","tags":["展示館","戰地史料"],"lat":24.44831,"lng":118.38484,"address":"金湖鎮小徑","desc":"再現戰地政務時期特約茶室史料，理解軍民互動的社會場景。","quests":["從展品撰寫 30 字心得","與同伴討論其歷史脈絡"] },

  { "id":"H02","name":"邱良功墓園","category":"書院","tags":["清代循吏","縣定古蹟"],"lat":24.44989,"lng":118.38593,"address":"金湖鎮小徑","desc":"清代循吏邱良功衣冠冢，石像生與神道碑配置完整，具高歷史價值。","quests":["抄錄一段碑刻文字","拍一張不打擾安寧的遠景照"] },

  { "id":"F01","name":"勇士堡","category":"碉堡","tags":["軍事據點","前線"],"lat":24.44762,"lng":118.25193,"address":"烈嶼鄉","desc":"典型前線碉堡，可觀察射口、掩體與火力配置。","quests":["找 2 處射口與視野方向","說明其防禦優勢（≥20 字）"] },
  { "id":"F02","name":"鐵漢堡","category":"碉堡","tags":["軍事據點","連成火網"],"lat":24.44691,"lng":118.252,"address":"烈嶼鄉","desc":"與勇士堡相鄰的據點組合，形成互補火網。","quests":["比較與勇士堡之布局差異","拍下彼此連線的方位"] },
  { "id":"G01","name":"后麟靶場（步槍模擬射擊館）","category":"營區","tags":["靶場","軍事遺構"],"lat":24.43903,"lng":118.25882,"address":"烈嶼鄉","desc":"早年射擊訓練場域，現留存多處標靶與遺構。","quests":["辨識一處射擊標示","畫下你看到的視角構圖"] },

  { "id":"M04","name":"古寧頭戰史館","category":"戰史館","tags":["展館","古寧頭戰役"],"lat":24.48303,"lng":118.32108,"address":"金寧鄉","desc":"仿古城堡式建築，十二幅大型油畫重現古寧頭戰役進程與人物。","quests":["選 1 張歷史照片寫 30 字心得","與同伴互講一段導覽"] },
  { "id":"M03","name":"地雷主題館","category":"地雷","tags":["掃雷","主題館"],"lat":24.44666,"lng":118.25188,"address":"烈嶼鄉","desc":"展示金門掃雷歷程與地雷知識，向排除戰爭遺緒的無名英雄致敬。","quests":["記錄 1 項掃雷關鍵技術","拍下最敬佩的勇士故事牌"] },

  { "id":"B04","name":"北山播音牆","category":"播音牆","tags":["心戰","冷戰遺構"],"lat":24.48892,"lng":118.31305,"address":"金寧鄉北山","desc":"冷戰時期對岸心戰喊話的重要設施之一，巨構牆面具鮮明時代意義。","quests":["找出牆面構造特點","錄一句「和平」的祝福話語"] },

  { "id":"I01","name":"建功嶼","category":"地形樣態","tags":["潮汐步道","蚵田"],"lat":24.42722,"lng":118.3,"address":"金城鎮","desc":"退潮方能踏浪前往的小島，務必留意潮汐與行走安全。","quests":["查詢潮汐時刻做計畫","拍一張安全又美的遠景"] },

  { "id":"B03","name":"雙口海灘","category":"沙灘","tags":["海岸","潮間帶"],"lat":24.43924,"lng":118.229,"address":"烈嶼鄉","desc":"退潮可見木柵與歷史遺構，夕陽時分景致尤佳。","quests":["撿 5 件垃圾守護海灘","錄 15 秒潮聲"] },

  { "id":"L02","name":"莒光樓","category":"地標","tags":["地標","展望"],"lat":24.42497,"lng":118.319,"address":"金城鎮","desc":"金門的指標地標，登樓可眺望城區與海景，夜景亦迷人。","quests":["不擋人的情況下拍到整棟樓","寫下一句座右銘"] },

  { "id":"Q01","name":"為什麼來金門？","category":"網美景點","tags":["主題互動","自我提問"],"lat":24.44609,"lng":118.33751,"address":"金寧鎮","desc":"作為導覽開場的自我紀錄卡。","quests":["列3件想完成的小事","回程前對照完成度"] },
  
  {"id":"GT001","name":"軌條柴","category":"戰地防禦","tags":["戰備工事","軍事遺跡"],"address":"多地","desc":"金門戰地遺留的軌條柴防禦設施，由鋼軌焊接成防禦障礙，展現戰時創意工法。","quests":["拍攝一張完整軌條柴照","寫下你對戰地創意的看法"]},
  {"id":"COW001","name":"路上黃牛","category":"金門日常","tags":["農村風景","自然共存"],"address":"多地","desc":"金門路上常見的黃牛，是島上特有的自然風景與生活日常，象徵人與自然的和諧共處。","quests":["拍下一頭正在散步的黃牛（保持安全距離）","寫一句形容金門日常的話"]},
  {"id":"WINE001","name":"雞頭魚尾","category":"金門日常","tags":["酒文化","民俗風情"],"address":"多地","desc":"金門酒文化的象徵之一，「雞頭魚尾」比喻飲酒開端豪爽、結尾柔順，是當地高粱品飲文化的幽默寫照。","quests":["記錄一場飲酒祝福的畫面","寫一句屬於你的乾杯金句"]},
  {"id":"SORGHUM001","name":"高粱田","category":"金門日常","tags":["農作","釀造來源"],"address":"多地","desc":"遍布金門的高粱田，是島上釀酒文化的起點，金色稻浪隨風搖曳。","quests":["拍攝成熟的高粱穗","寫下對土地與釀造的感想"]},
  {"id":"DIALECT001","name":"金門腔","category":"金門日常","tags":["閩南語","方言特色"],"address":"多地","desc":"金門腔是閩南語的重要分支，保留濃厚古音，展現金門人語言的自信與文化根基。","quests":["錄下你聽到的一句金門腔","寫一句你最喜歡的在地用語"]},
  {"id":"XM001","name":"廈門一景","category":"金門日常","tags":["遠眺","兩岸地理"],"address":"金門東北沿岸","desc":"從金門多處可遠眺廈門都市天際線，展現一海之隔的地理與歷史張力。","quests":["拍下一張能看到廈門的照片","寫一句描述兩岸風景的句子"]},
  {"id":"WIND001","name":"風雞、北風爺","category":"金門日常","tags":["信仰文化","風神崇拜"],"address":"多地","desc":"風雞與北風爺是金門特有的風神信仰，象徵祈風保境、驅疫避災的民俗傳統。","quests":["找到一尊風雞或北風爺神像","寫一句祈願好天氣的話"]},
  {"id":"DEF001","name":"反空降樁","category":"戰地防禦","tags":["海岸防線","戰備遺構"],"address":"多地","desc":"反空降樁由鋼筋水泥製成，用以防止敵軍登陸，是金門海岸線上特殊的戰地風景。","quests":["拍下排列最整齊的一列樁","寫一句形容防禦美學的話"]},
  {"id":"BUNKER001","name":"反空降堡","category":"戰地防禦","tags":["據點堡壘","防禦工事"],"address":"多地","desc":"反空降堡作為金門重要的防禦據點，見證冷戰時期的戰略思維與軍事技術。","quests":["走訪一座保存良好的碉堡","寫下你對和平的想法"]},
  
  { "id":"F_M_BeefNoodle","name":"牛肉麵","category":"在地美食","tags":["經典","熱食"],"address":"多店家","desc":"濃郁湯頭與彈牙麵條的在地經典。","quests":["評分 1–5","拍下最療癒的一口"] },
  { "id":"F_M_CantoneseCongee","name":"廣東粥","category":"在地美食","tags":["暖胃","早點"],"address":"多店家","desc":"綿密口感的暖胃早餐代表。","quests":["寫 3 個風味關鍵詞","店家門面合照"] },
  { "id":"F_M_StirNoodle","name":"炒泡麵","category":"在地美食","tags":["家常","快炒"],"address":"多店家","desc":"在地家常炒麵，Q 勁與香氣兼具。","quests":["拍色香味","寫 20 字口感"] },
  { "id":"F_M_Gyoza","name":"冰花煎餃","category":"在地美食","tags":["煎","脆邊"],"address":"多店家","desc":"薄脆冰花邊，內餡多汁。","quests":["拍脆邊特寫","評 1 句口感"] },
  { "id":"F_M_Oyster","name":"石蚵","category":"在地美食","tags":["海味","季節"],"address":"多店家","desc":"潮間帶海味代表，鮮甜彈牙。","quests":["拍料理成品","寫最佳料理法"] },
  { "id":"F_M_SunNoodle","name":"日曬麵線","category":"在地美食","tags":["手作","日曬"],"address":"多店家","desc":"日曬工序帶出獨特勁道。","quests":["拍線架畫面","寫 20 字風味"] },
  { "id":"F_M_Gaoliang","name":"高粱酒","category":"在地美食","tags":["烈酒","釀造"],"address":"多店家","desc":"在地釀造的經典烈酒。","quests":["負責任飲用","描述 3 個香氣詞"] },
  { "id":"F_M_Taro","name":"芋頭","category":"在地美食","tags":["在地作物"],"address":"多店家","desc":"綿密香甜的在地作物。","quests":["拍剖面","寫最佳料理搭配"] },
  { "id":"F_M_SandWorm","name":"沙蟲","category":"在地美食","tags":["海味","限定"],"address":"多店家","desc":"獨特的潮間帶食材。","quests":["寫敢不敢嘗試的理由","評 1–5"] },
  { "id":"F_M_Foshou","name":"佛手貝","category":"在地美食","tags":["貝類"],"address":"多店家","desc":"少見的貝類食材，口感獨特。","quests":["拍料理","寫 20 字口感"] },
  { "id":"F_M_GaoliangCrab","name":"高粱嗆蟹","category":"在地美食","tags":["冷盤","酒香"],"address":"多店家","desc":"酒香入味，鮮甜帶勁。","quests":["拍擺盤","寫 20 字風味"] },
  { "id":"F_M_WineTangYuan","name":"酒釀湯圓","category":"在地美食","tags":["甜品","酒香"],"address":"多店家","desc":"微酒香襯托湯圓軟糯。","quests":["寫 3 個風味詞","拍成品"] },
  { "id":"F_M_EggRoll","name":"蛋香、蛋狗","category":"在地美食","tags":["在地點心"],"address":"多店家","desc":"在地常見的小食點心。","quests":["記錄攤位","寫 20 字口感"] },
  { "id":"F_M_Youtiao","name":"油條","category":"在地美食","tags":["早點"],"address":"多店家","desc":"金黃酥脆，早餐必備。","quests":["拍斷面","寫最佳搭配飲品"] },
  { "id":"F_M_PorkSoupNoodle","name":"肉羹麵","category":"在地美食","tags":["羹湯"],"address":"多店家","desc":"勾芡羹湯與彈牙肉羹的組合。","quests":["拍湯色","寫 20 字口感"] },
  { "id":"F_M_ManJianGao","name":"滿煎糕","category":"在地美食","tags":["點心"],"address":"多店家","desc":"外酥內柔，甜香滿溢。","quests":["拍剖面","寫 1 句評語"] },
  { "id":"F_M_GaoliangEgg","name":"高粱酒釀蛋","category":"在地美食","tags":["酒香","蛋"],"address":"多店家","desc":"酒香浸潤的蛋料理。","quests":["拍成品","寫 20 字感受"] },
  { "id":"F_M_ShanxiNoodle","name":"山西拌麵","category":"在地美食","tags":["拌麵","地域風味"],"address":"多店家","desc":"麵香與醬香的直球對決。","quests":["拍拌勻前後","寫 20 字口味"] },

  { "id":"D_Bafenpu","name":"八分舖","category":"在地飲品","tags":["在地飲品"],"address":"多店家","desc":"在地常見飲品品牌（據點依實際）。","quests":["拍杯身設計","寫 3 個風味詞"] },
  { "id":"D_Gaoming","name":"高明綠豆沙","category":"在地飲品","tags":["冰飲","豆沙"],"lat":24.442045793617677,"lng":118.41510468019536,"address":"高明照相館","desc":"綠豆沙香濃冰涼，沁心消暑。","quests":["拍杯身與綿密度","評分 1–5"] },
  
  { "id":"S_Gaoliang","name":"高粱酒","category":"金門名產","tags":["釀造","經典"],"address":"多店家","desc":"最具代表性的金門名產之一。","quests":["拍酒標","寫 3 個香氣詞"] },
  { "id":"S_Yitiaogen","name":"一條根","category":"金門名產","tags":["藥草","伴手"],"address":"多店家","desc":"在地藥草延伸的保健／伴手禮。","quests":["拍外盒","寫功用印象"] },
  { "id":"S_Knife","name":"砲彈菜刀","category":"金門名產","tags":["鋼材","工藝"],"address":"多店家","desc":"戰地記憶轉化的金屬工藝代表。","quests":["拍刀紋","寫 20 字心得"] },
  { "id":"S_GongTang","name":"貢糖","category":"金門名產","tags":["花生","點心"],"address":"多店家","desc":"香脆不黏牙，老少咸宜的伴手禮。","quests":["拍產品與包裝","寫 20 字口感"] },
  { "id":"S_ShaoBing","name":"燒餅","category":"金門名產","tags":["爐烤","在地風味"],"address":"多店家","desc":"層次分明、外酥內香的在地點心。","quests":["拍切面層次","寫最佳搭配飲品"] },
  { "id":"S_GaoliangIce","name":"高粱冰淇淋","category":"金門名產","tags":["創意","冰品"],"address":"多店家","desc":"將酒香化為甜點的創意產品。","quests":["拍融化前後","寫 1 句評語"] },
  { "id":"S_GaoliangRoll","name":"高粱蛋捲","category":"金門名產","tags":["蛋香","酥脆"],"address":"多店家","desc":"帶有酒香的酥脆蛋捲。","quests":["拍斷面","寫 20 字口感"] },
  { "id":"S_WindLionSouvenir","name":"風獅爺紀念品","category":"金門名產","tags":["守護","象徵"],"address":"多店家","desc":"把守護意象帶回家的小物。","quests":["拍最喜歡的一款","寫寓意"] },
  { "id":"S_Tofu","name":"豆腐乳","category":"金門名產","tags":["發酵","蘸料"],"address":"多店家","desc":"發酵風味濃郁，百搭下飯。","quests":["拍瓶身","寫最佳搭配"] },
  { "id":"S_Jerky","name":"牛(豬)肉乾","category":"金門名產","tags":["肉乾","零嘴"],"address":"多店家","desc":"旅行途中最方便的在地零嘴。","quests":["拍口味標示","寫 20 字評語"] },
  { "id":"S_Seaweed","name":"紫菜酥","category":"金門名產","tags":["海味","零嘴"],"address":"多店家","desc":"薄脆海味點心，越吃越唰嘴。","quests":["拍包裝","寫 1 句評語"] },
  { "id":"S_Mianxian","name":"麵線","category":"金門名產","tags":["日曬","手作"],"address":"多店家","desc":"日曬工序的麵條代表。","quests":["拍線架或包裝","寫料理提案"] },
  { "id":"S_SourCabbage","name":"酸白菜","category":"金門名產","tags":["發酵菜"],"address":"多店家","desc":"發酵酸香，湯鍋好夥伴。","quests":["拍料理","寫最佳吃法"] },
  { "id":"S_BlackGarlic","name":"黑蒜頭","category":"金門名產","tags":["熟成","健康"],"address":"多店家","desc":"熟成帶出甜韻與新風味。","quests":["拍內部色澤","寫風味詞"] },
  { "id":"S_DutyFree","name":"免稅商品","category":"金門名產","tags":["免稅","限定"],"address":"多店家","desc":"離島免稅的購物特色。","quests":["拍購物袋","寫購物心得"] },

  { "id":"T_Bucket","name":"烈嶼桶餅","category":"傳統點心","tags":["烈嶼","傳統餅"],"address":"多店家","desc":"烈嶼在地傳統餅食。","quests":["拍外盒","寫 20 字口感"] },
  { "id":"T_Cunjiao","name":"寸棗糖","category":"傳統點心","tags":["古早味","糖果"],"address":"多店家","desc":"古早味甜點，口感紮實。","quests":["拍顆粒特寫","寫風味詞"] },
  { "id":"T_OneBite","name":"一口酥","category":"傳統點心","tags":["小點","酥香"],"address":"多店家","desc":"一口大小的酥點。","quests":["拍剖面","寫 1 句評語"] },
  { "id":"T_NiuE","name":"牛軛餅","category":"傳統點心","tags":["古早味","在地餅"],"address":"多店家","desc":"以牛軛意象命名的傳統餅。","quests":["拍餅紋","寫口感關鍵詞"] },
  { "id":"T_SuoZaiGu","name":"索仔股","category":"傳統點心","tags":["傳統","點心"],"address":"多店家","desc":"在地傳統點心之一。","quests":["拍外觀","寫 20 字口感"] },

  { "id":"WL_99","name":"九十九尊風獅爺","category":"特色風獅爺","tags":["守護","群像"],"address":"多地","desc":"以風獅爺守護群像為主題的蒐集任務。","quests":["拍 3 尊不同造型","寫你最喜歡的寓意"] },
  { "id":"WL_Qionglin","name":"瓊林風獅爺","category":"特色風獅爺","tags":["瓊林"],"address":"瓊林聚落","desc":"聚落意象濃厚的金門觀光代言者風獅爺。","quests":["拍與聚落環境合照","寫守護寓意"] },
  { "id":"WL_Dongzhou","name":"東洲風獅爺","category":"特色風獅爺","tags":["傳說","辦案"],"address":"東洲聚落","desc":"相傳協助村落抓兇手的風獅爺。","quests":["拍合影","寫 20 字故事摘要"] },
  { "id":"WL_GuanAo","name":"官澳風獅爺","category":"特色風獅爺","tags":["造型","特色"],"address":"官澳聚落","desc":"少見穿裙子的造型。","quests":["拍造型重點","寫設計觀察"] },
  { "id":"WL_Anqi","name":"安岐風獅爺","category":"特色風獅爺","tags":["高度","地標"],"address":"安岐聚落","desc":"聚落中最高的風獅爺。","quests":["拍仰角構圖","寫 1 句評語"] },
  { "id":"WL_Jinmencheng","name":"金門城風獅爺","category":"特色風獅爺","tags":["歷史","最悠久"],"address":"金門城","desc":"歷史最悠久的風獅爺。","quests":["拍近景與遠景各一","寫歷史印象"] },
  { "id":"WL_Xiyuan","name":"西園風獅爺","category":"特色風獅爺","tags":["郵票","紀念"],"address":"金沙鎮西園","desc":"登上郵票的風獅爺形象。","quests":["拍姿態","寫 20 字寓意"] },
  { "id":"WL_Qingyu","name":"青嶼風獅爺","category":"特色風獅爺","tags":["由私到公","變遷"],"address":"金沙鎮青嶼","desc":"從私宅轉為村落供奉的故事。","quests":["拍供奉環境","寫 20 字心情"] },
  { "id":"WL_Xiashu","name":"夏墅風獅爺","category":"特色風獅爺","tags":["可愛","造型"],"address":"夏墅聚落","desc":"造型被暱稱為『小叮噹』。","quests":["拍可愛重點","寫 1 句評語"] },
  { "id":"WL_Min","name":"瓊林風獅爺","category":"特色風獅爺","tags":["最小","趣味"],"address":"瓊林聚落","desc":"金門最小的風獅爺。","quests":["拍比例對比","寫趣味觀察"] },
  { "id":"WL_Xifang","name":"西方風獅爺","category":"特色風獅爺","tags":["百年","歷史"],"address":"西方聚落","desc":"百年風獅爺，歷經歲月仍守護聚落。","quests":["拍風化細節","寫 20 字感想"] }
]
